agency_ori,geo_name,countCarThefts2019,countCarThefts2020,countCarThefts2021,countCarThefts2022,latitude,longitude,percentChange2019to2022
MO0490300,Carthage PD,62,58,47,26,37.17585351,-94.31334518,-0.5806451612903226
,Warren County SO,112,94,76,58,41.3087884,-80.8478765,-0.48214285714285715
TX06802,Odessa PD,499,464,375,288,31.8893323,-102.3298887,-0.4228456913827655
MO0530000,Laclede County SO,55,74,54,32,37.66345508,-92.54901283,-0.41818181818181815
MO0480000,Jackson County SO,125,141,81,75,37.38440132,-89.66791807,-0.4
MN0070100,Mankato Dept of Public Safety,72,62,66,44,44.1616817,-94.0087623,-0.3888888888888889
,Pickaway County SO,50,37,35,31,39.6558613,-83.0486789,-0.38
,Roy PD,60,61,60,37,41.1715642,-112.0272788,-0.38333333333333336
RI0040400,East Providence PD,73,42,53,46,41.84002609,-71.46640907,-0.3698630136986301
MN0860000,Wright County SO,65,65,43,42,45.20875791,-93.86329086,-0.35384615384615387
,Lancaster PD,90,74,-,59,39.7127563,-82.6017001,-0.34444444444444444
PA0671500,Northern York Regional PD,42,41,44,28,39.9910542,-76.6702415,-0.3333333333333333
PA0061400,Reading City PD,194,176,142,131,40.3924098,-75.9931368,-0.3247422680412371
,Unified PD of Greater Salt Lake,969,-,974,661,40.73710136,-112.0966499,-0.31785345717234265
,Lorain County SO,41,67,21,28,41.4684988,-82.1791283,-0.3170731707317073
PAPSP5300,PA State Police - Mansfield Station,37,39,16,25,41.792623,-77.120058,-0.32432432432432434
NV0120000,Nye County SO,155,121,101,109,38.02867387,-116.5454584,-0.2967741935483871
PAPSP5500,PA State Police - Meadville Station,44,32,18,31,41.6168302,-80.2027519,-0.29545454545454547
TX08409,Texas City PD,146,158,123,104,29.3946456,-94.9089347,-0.2876712328767123
MO0920400,St Peters PD,96,100,121,68,38.7890591,-90.61665537,-0.2916666666666667
MO0110100,St Joseph PD,660,574,443,467,39.76179293,-94.80883152,-0.2924242424242424
PAPSP3400,PA State Police - Greensburg Station,42,23,40,30,40.29530465,-79.55207678,-0.2857142857142857
,Middletown PD,148,145,170,106,39.5192421,-84.4012023,-0.28378378378378377
PA0090900,Middletown Township PD,39,41,28,28,40.1948706,-76.7323419,-0.28205128205128205
,Weber County SO,89,136,91,64,41.26648899,-111.979348,-0.2808988764044944
SC01008,North Charleston PD,966,680,757,704,33.6151587,-81.1034881,-0.2712215320910973
,Warren PD,129,69,83,96,41.3087884,-80.8478765,-0.2558139534883721
RI0040200,Cranston PD,91,87,111,67,41.7478005,-71.4674858,-0.26373626373626374
AK00101,Anchorage PD,1553,1192,1095,1163,61.2212249,-149.8880263,-0.2511268512556343
OK05506,Oklahoma City PD,3818,3782,3512,2955,35.4877358,-97.5043369,-0.22603457307490832
NC04103,High Point PD,400,331,325,309,35.98758651,-80.02156181,-0.2275
NV0160100,Reno PD,1184,987,1375,911,39.5738515,-119.810997,-0.23057432432432431
PA0630500,Washington City PD,41,29,31,32,40.1680849,-80.2464984,-0.21951219512195122
PA0021900,Penn Hills Township PD,87,70,62,68,40.46140966,-79.82595544,-0.21839080459770116
MN0580000,Pine County SO,63,92,79,49,46.14940313,-92.7095069,-0.2222222222222222
MN0690600,Duluth PD,212,206,292,167,46.7838277,-92.1052764,-0.21226415094339623
TN06301,Clarksville PD,472,409,433,389,36.53805443,-87.35265374,-0.17584745762711865
,Ogden PD,345,392,358,283,41.240167,-111.993538,-0.17971014492753623
CO0220000,Fremont County SO,41,40,35,34,38.44637392,-105.1815303,-0.17073170731707318
CA03610,San Bernardino PD,2078,1709,1849,1721,34.1125153,-117.2923722,-0.1717998075072185
VA09900,Alexandria PD,362,343,256,299,38.798034,-77.0644737,-0.17403314917127072
MO0922400,St Charles County PD,59,153,92,49,38.83846505,-90.663379,-0.1694915254237288
,Ross County SO,132,147,111,110,39.34491956,-83.0674236,-0.16666666666666666
,Findlay PD,35,31,46,29,41.0380711,-83.6524428,-0.17142857142857143
MO0360000,Franklin County SO,58,98,71,49,38.41401605,-91.05359003,-0.15517241379310345
MN0820700,Cottage Grove PD,31,33,32,26,44.8340426,-92.9535649,-0.16129032258064516
MN0040100,Bemidji PD,57,65,42,48,47.47398265,-94.88328564,-0.15789473684210525
KS08703,Wichita PD,3192,3062,2979,2723,37.69286914,-97.33916667,-0.14692982456140352
CO0430100,Montrose PD,53,45,56,45,38.479071,-107.874763,-0.1509433962264151
MO0510300,Warrensburg PD,40,61,47,34,38.7654155,-93.7420275,-0.15
,Zanesville PD,46,41,50,39,39.9409154,-82.0072986,-0.15217391304347827
,Murray PD,403,577,453,341,40.66240706,-111.8874883,-0.15384615384615385
OR0100500,Roseburg PD,109,124,104,93,43.2119728,-123.34148,-0.14678899082568808
MN0020100,Anoka PD,39,24,29,33,45.2017314,-93.3878361,-0.15384615384615385
TX22601,San Angelo PD,231,322,224,199,31.35737452,-100.502947,-0.13852813852813853
NV0040100,Elko PD,73,82,75,63,40.8246854,-115.7723704,-0.136986301369863
OR0100000,Douglas SO,192,223,198,165,43.33223389,-123.1886547,-0.140625
MO0190200,Belton PD,75,79,104,65,38.8272843,-94.514869,-0.13333333333333333
DE00206,Wilmington PD,415,384,412,361,39.7387328,-75.5483019,-0.13012048192771083
PA0233900,Yeadon Borough PD,40,52,25,35,39.9361947,-75.2536558,-0.125
OR0090000,Deschutes SO,69,71,87,60,43.96464899,-121.1926363,-0.13043478260869565
CO0220100,Canon City PD,50,80,61,44,38.44626447,-105.1820428,-0.12
CO0210200,Fountain PD,100,70,104,88,38.684819,-104.704153,-0.12
,West Valley PD,703,954,773,616,40.69519924,-111.9569147,-0.12375533428165007
OR0150000,Jackson SO,136,100,109,120,42.39293757,-122.7409391,-0.11764705882352941
MN0020200,Blaine PD,103,110,99,91,45.1661418,-93.2082851,-0.11650485436893204
CO0210000,El Paso County SO,483,368,411,431,38.91898776,-104.4791939,-0.10766045548654245
CO0210100,Colorado Springs PD,3229,2634,2858,2866,38.89240461,-104.8029983,-0.11241870548157325
,St. George PD,138,140,147,123,37.11339363,-113.5778344,-0.10869565217391304
CT00093,New Haven PD,689,721,608,614,41.2890844,-72.925412,-0.10885341074020319
PAPSP0200,PA State Police - Avondale Station,29,22,31,26,39.8388429,-75.7975635,-0.10344827586206896
,South Ogden PD,31,33,27,28,41.1911932,-111.9679398,-0.0967741935483871
CA03905,Stockton PD,1678,1496,1416,1531,37.9934189,-121.3141207,-0.08760429082240763
MN0020500,Coon Rapids PD,86,81,105,78,45.17302714,-93.30309812,-0.09302325581395349
TX17802,Corpus Christi PD,895,881,1024,827,27.7135484,-97.3290393,-0.07597765363128492
AZ0140500,Yuma PD,232,189,239,214,32.724654,-114.6224525,-0.07758620689655173
,Tuscarawas County SO,38,29,40,35,40.3941839,-81.4005332,-0.07894736842105263
NJ02004,Elizabeth PD,757,698,719,695,40.6669173,-74.2132653,-0.08190224570673713
,Clearfield PD,39,50,55,36,41.11311932,-112.0241058,-0.07692307692307693
CT00015,Bridgeport PD,618,643,720,566,41.1753701,-73.1911509,-0.08414239482200647
MO0150000,Camden County SO,43,69,26,40,39.19676214,-94.06042774,-0.06976744186046512
NV0160200,Sparks PD,376,325,421,350,39.5415159,-119.7100724,-0.06914893617021277
MN0690000,St Louis County SO,56,32,88,52,47.63123212,-92.47675502,-0.07142857142857142
TX22101,Abilene PD,206,201,207,194,32.44455137,-99.73261223,-0.05825242718446602
MDBPD00,Baltimore PD,5952,4849,5048,5585,39.3109584,-76.6587321,-0.06165994623655914
CO0620000,Weld County SO,124,180,172,118,40.44985035,-104.7035418,-0.04838709677419355
CA03705,El Cajon PD,359,355,419,340,32.78856243,-116.8282172,-0.052924791086350974
TN04701,Knoxville PD,984,1122,1131,935,35.9603179,-83.9166576,-0.049796747967479675
IN07102,South Bend PD,573,538,685,547,41.6656955,-86.2584312,-0.04537521815008726
MI82349,Detroit PD,6890,5578,6737,6573,42.382142,-83.0818816,-0.04600870827285922
MN0270200,Brooklyn Center PD,202,205,204,191,45.0769234,-93.3006003,-0.054455445544554455
TX02102,College Station PD,188,210,190,180,30.6057688,-96.3027804,-0.0425531914893617
TX18801,Amarillo PD,975,1066,860,932,35.2101764,-101.8347833,-0.0441025641025641
,Clermont County SO,56,81,78,54,39.05229704,-84.15775585,-0.03571428571428571
PA0390100,Allentown City PD,243,274,235,233,40.6109403,-75.565969,-0.0411522633744856
CO0440200,Fort Morgan PD,31,36,33,30,40.2521227,-103.7876199,-0.03225806451612903
PAPSP6300,PA State Police - Gibson Station,33,53,18,32,41.8309167,-75.68807713,-0.030303030303030304
OR0170000,Josephine SO,146,169,130,141,42.39836173,-123.5834969,-0.03424657534246575
CO0180100,Castle Rock PD,63,110,79,62,39.3709069,-104.8582544,-0.015873015873015872
TX05712,Grand Prairie PD,501,611,478,492,32.7457131,-97.0054547,-0.017964071856287425
RI0040100,Central Falls PD,53,44,26,52,41.8924196,-71.3839267,-0.018867924528301886
VA12200,Richmond PD,1192,1160,1018,1207,37.5078405,-77.3326865,0.012583892617449664
TX15202,Lubbock PD,1225,1158,1085,1217,33.57816494,-101.8544501,-0.006530612244897959
MN0620000,Ramsey County SO,169,196,209,167,45.2322971,-93.4594358,-0.011834319526627219
TX22001,Arlington PD,1231,1264,1339,1225,32.7305236,-97.1243281,-0.00487408610885459
AR06002,Little Rock PD,1070,1013,1056,1069,34.67677,-92.34130953,-0.0009345794392523365
OK01402,Norman PD,359,407,510,358,35.2230028,-97.4460595,-0.002785515320334262
,Hocking County SO,37,54,-,37,39.50605811,-82.47046873,0
,Madison Township PD,26,31,40,26,41.7713932,-81.0501534,0
IA05701,Cedar Rapids PD,409,557,436,407,41.9748922,-91.6756665,-0.004889975550122249
OR0150400,Medford PD,341,323,238,342,42.32208048,-122.8785762,0.002932551319648094
OR0260100,Gresham PD MIP,1047,911,1014,1044,45.5075778,-122.4360593,-0.0028653295128939827
OR0340200,Forest Grove PD,44,37,67,44,45.5194,-123.10995,0
MN0480000,Mille Lacs County SO,35,37,49,35,45.97329307,-93.6504957,0
SC01001,Charleston PD,496,453,471,502,32.79706343,-79.95871973,0.012096774193548387
MO0490700,Joplin PD,357,390,364,360,37.0740529,-94.4590697,0.008403361344537815
CA00710,Richmond PD,945,1084,1104,1041,37.9181517,-122.349847,0.10158730158730159
,Newark PD,148,147,192,150,40.05857038,-82.39486054,0.013513513513513514
,Sandy PD,192,357,212,193,40.59055527,-111.6373419,0.005208333333333333
OR0240000,Marion SO,398,295,140,400,44.9402892,-123.0333902,0.005025125628140704
OK07205,Tulsa PD,3033,3904,4266,3108,36.1633711,-95.9875306,0.024727992087042534
MA00718,Springfield PD,494,496,508,505,42.10882764,-72.57850629,0.022267206477732792
AZ0111300,Apache Junction PD,104,89,105,107,33.4228445,-111.5443213,0.028846153846153848
TN03301,Chattanooga PD,1315,2101,1615,1354,35.04734347,-85.29348125,0.029657794676806085
VA10300,Chesapeake PD,389,328,387,402,36.7182347,-76.2491607,0.033419023136246784
PAPSP4700,PA State Police - Lancaster Station,33,36,28,34,40.0765713,-76.2984014,0.030303030303030304
MN0270800,Golden Valley PD,36,55,82,37,44.9863098,-93.3782781,0.027777777777777776
TX22012,Fort Worth PD,3486,3621,3739,3632,32.7397787,-97.4101515,0.04188181296615032
,Highland County SO,27,37,35,28,39.18896262,-83.60521387,0.037037037037037035
IN02901,Carmel PD,67,58,59,70,39.9663739,-86.1277873,0.04477611940298507
PA0110400,Johnstown City PD,26,31,31,27,40.44418341,-78.83999758,0.038461538461538464
MA00926,Lowell PD,171,224,186,177,42.6471179,-71.3137541,0.03508771929824561
MN0620500,Mounds View PD,26,23,48,27,44.9341933,-93.658499,0.038461538461538464
CO0070400,Longmont Dept. of Public Safety,342,455,426,358,40.1695987,-104.9756786,0.04678362573099415
NC06502,Wilmington PD,259,199,230,271,34.19211731,-77.94783211,0.04633204633204633
PA0230800,Darby Borough PD,38,54,31,40,39.9136048,-75.25265017,0.05263157894736842
RI0040500,Johnston PD,44,48,43,46,41.83064,-71.5002915,0.045454545454545456
ID00101,Boise PD,245,279,262,258,43.6078392,-116.3017464,0.053061224489795916
CA04313,San Jose PD,6126,7065,6419,6469,37.3001551,-121.7627447,0.055990858635324846
IN00201,Fort Wayne PD,568,510,596,602,41.1178189,-85.1108578,0.05985915492957746
MI81218,Ann Arbor PD,138,81,82,146,42.28191841,-83.74568742,0.057971014492753624
FL05214,St. Petersburg PD,783,639,705,840,27.7727091,-82.65019612,0.07279693486590039
TX12301,Beaumont PD,338,362,381,360,30.07942497,-94.09224902,0.0650887573964497
CA03710,Oceanside PD,452,419,485,482,33.225881,-117.3286833,0.06637168141592921
CA00701,Antioch PD,610,573,552,652,38.0161648,-121.8204925,0.06885245901639345
NV0130000,Carson City SO,56,78,86,60,39.15828537,-119.7634735,0.07142857142857142
,Provo PD,129,152,118,138,40.2330686,-111.6648897,0.06976744186046512
,Coshocton County SO,28,30,22,30,40.2757996,-81.8658242,0.07142857142857142
PA0350400,Scranton City PD,82,107,147,88,41.4059409,-75.6667301,0.07317073170731707
ID01402,Nampa PD,138,193,160,147,43.57839272,-116.5617318,0.06521739130434782
LA02600,Jefferson SO,571,486,519,614,29.9660381,-90.15673982,0.07530647985989491
TX05711,Garland PD,971,1081,926,1051,32.9103528,-96.6548367,0.082389289392379
PA0360500,Lancaster City PD,80,84,74,86,40.0765713,-76.2984014,0.075
PA0070100,Altoona City PD,52,59,66,56,40.4940913,-78.3994532,0.07692307692307693
PAPPD0000,Pittsburgh City PD,635,517,636,688,40.5198366,-80.032889,0.08346456692913386
NB02802,Omaha PD,3711,3568,3487,3995,41.2909437,-96.1569928,0.07652923740231743
NC02601,Fayetteville PD,384,465,460,420,35.0504942,-78.877001,0.09375
,Fairborn PD,44,38,40,48,39.8268739,-84.0230023,0.09090909090909091
PA0230400,Chester City PD,168,132,167,183,39.8516118,-75.3593797,0.08928571428571429
TX04305,McKinney PD,165,213,202,181,33.2239746,-96.6408037,0.09696969696969697
NV0100000,Lyon County SO,71,73,81,78,39.02744475,-119.2231368,0.09859154929577464
MO0480600,Independence PD,834,1007,1090,917,39.0932123,-94.4126951,0.09952038369304557
,Wooster PD,29,20,49,32,40.79928506,-81.94254246,0.10344827586206896
WI01301,Madison PD,546,648,709,601,43.0717908,-89.3835305,0.10073260073260074
GAAPD00,Atlanta PD,2977,3219,3076,3312,33.7506518,-84.3911455,0.11252939200537454
CT00151,Waterbury PD,531,550,645,588,41.54979584,-73.07299409,0.10734463276836158
MN0820200,Forest Lake PD,28,43,41,31,45.26632675,-92.98541502,0.10714285714285714
AR02301,Conway PD,100,122,140,112,35.0787199,-92.4606469,0.12
IN08201,Evansville PD,403,438,456,450,37.97375982,-87.56752854,0.11662531017369727
CA03404,Sacramento PD,2717,2511,3164,3049,38.55750224,-121.4196925,0.1221935958778064
PA0021300,McKeesport City PD,42,27,52,47,40.3422019,-79.8708786,0.11904761904761904
OR0090200,Redmond PD,76,100,106,85,44.2737569,-121.1757677,0.11842105263157894
OR0240500,Woodburn PD,146,264,171,163,45.15086674,-122.8432055,0.11643835616438356
CO0010000,Adams County SO,917,1137,"1,345","1,035",39.86176746,-104.9370822,NaN
NC06001,Charlotte-Mecklenburg PD,3334,2984,3150,3778,35.2227138,-80.8372997,0.1331733653269346
TN01901,Metro Nashville PD,3056,3450,3369,3460,36.16324433,-86.7822909,0.13219895287958114
MO0480300,Grain Valley PD,38,44,45,43,39.0187296,-94.1976264,0.13157894736842105
,Miamisburg PD,32,35,39,36,39.6273961,-84.2191919,0.125
,Clark County SO,31,28,45,35,39.9242254,-83.77504156,0.12903225806451613
NV0160000,Washoe County SO,86,80,109,97,40.81353092,-119.6658473,0.12790697674418605
OR0170100,Grants Pass PD,128,134,191,144,42.44300782,-123.3257211,0.125
CO0390000,Mesa County SO,130,194,205,148,39.06894425,-108.5722447,0.13846153846153847
NC03201,Durham PD,758,965,764,863,35.99665788,-78.90932965,0.13852242744063326
,Xenia PD,42,30,16,48,39.6859535,-83.927611,0.14285714285714285
,Wayne County SO,51,57,78,58,41.3025416,-83.4773307,0.13725490196078433
MN0550100,Rochester PD,131,126,173,149,44.0196395,-92.46078955,0.13740458015267176
KY05680,Louisville Metro PD,4013,4647,4336,4613,38.2713443,-85.6143994,0.149514079242462
MO0240400,Gladstone PD,123,146,105,142,39.2214682,-94.571889,0.15447154471544716
PAPSP8800,PA State Police - Uniontown Station,40,44,58,46,39.89901436,-79.72567456,0.15
NJNPD00,Newark PD,1541,1707,1792,1778,40.7402522,-74.1786469,0.1537962362102531
,Logan PD,40,39,68,46,41.7367703,-111.837069,0.15
TX10115,Pasadena PD,546,619,675,635,29.6780785,-95.1916685,0.163003663003663
,Woods Cross PD,31,55,31,36,40.87436139,-111.9016707,0.16129032258064516
,Barberton PD,32,51,43,37,41.0134928,-81.6109853,0.15625
MA01301,Boston PD,982,1280,1164,1144,42.3342883,-71.0903975,0.164969450101833
MN0272400,University of MN PD - Minneapolis,43,23,40,50,44.9773167,-93.26588838,0.16279069767441862
TX15512,Waco PD,324,416,421,378,31.6236683,-97.1029971,0.16666666666666666
TX05718,Mesquite PD,876,854,813,1023,32.77393414,-96.59994635,0.1678082191780822
MO0420000,Henry County SO,42,39,62,49,38.38288656,-93.78225137,0.16666666666666666
CO0150000,Delta County SO,24,21,17,28,38.7405777,-108.0730953,0.16666666666666666
,West Chester Township PD,52,55,72,61,39.3325588,-84.4478751,0.17307692307692307
WI00502,Green Bay PD,124,115,139,145,44.51110335,-88.01598482,0.1693548387096774
WA03100,Snohomish PD,862,865,749,1011,47.9139234,-122.0892548,0.1728538283062645
OR0200600,Springfield PD,171,177,182,202,44.0473248,-123.0214379,0.18128654970760233
CA03702,Chula Vista PD,827,760,936,980,32.6399533,-117.0828943,0.18500604594921402
,Greene County SO,26,48,29,31,39.68615632,-83.92601243,0.19230769230769232
PA0232800,Ridley Township PD,27,33,30,32,39.87252385,-75.3269127,0.18518518518518517
PAPSP0400,PA State Police - Bedford Station,21,28,15,25,40.0175359,-78.5068401,0.19047619047619047
,Brigham City PD,21,33,27,25,41.5090937,-112.0351901,0.19047619047619047
MN0730600,Waite Park PD,26,26,25,31,45.5543293,-94.233829,0.19230769230769232
OHCLP00,Cleveland PD,2790,2941,3000,3340,41.5461791,-81.6148602,0.1971326164874552
,Lorain PD,91,95,96,109,41.4684988,-82.1791283,0.1978021978021978
PA0250200,Erie City PD,96,167,168,115,42.129027,-80.087938,0.19791666666666666
OR0200200,Eugene PD MIP,623,740,803,749,44.00865072,-123.0303215,0.20224719101123595
TX04304,Frisco PD,104,104,122,126,33.1341712,-96.8228559,0.21153846153846154
WA03103,Everett PD,812,703,695,985,47.9775864,-122.2076171,0.21305418719211822
TX21204,Tyler PD,171,210,221,208,32.3323891,-95.3091534,0.21637426900584794
TX04306,Plano PD,429,440,477,525,33.0495204,-96.6758431,0.22377622377622378
RI0040600,Lincoln PD,23,26,17,28,41.9303861,-71.4428738,0.21739130434782608
TXDPD00,Dallas PD,10889,10401,11822,13377,32.9221234,-96.7308119,0.22848746441362844
KS04605,Olathe PD,192,235,239,236,38.8826395,-94.8200986,0.22916666666666666
PA0090300,Bristol Township PD,92,91,86,113,40.1240969,-74.8676014,0.22826086956521738
MN0621000,White Bear Lake PD,56,69,60,69,45.08401616,-93.01216726,0.23214285714285715
CA03711,San Diego PD,5175,5080,6245,6403,32.77407503,-117.1599812,0.23729468599033818
PA0380200,Lebanon City PD,21,23,17,26,40.2754348,-76.4132985,0.23809523809523808
PA0401300,Wilkes-Barre City PD,42,92,57,52,41.24497902,-75.87719231,0.23809523809523808
MN0180100,Brainerd PD,21,40,37,26,46.35632894,-94.20586486,0.23809523809523808
,Riverside PD,53,73,80,66,39.79386717,-84.1261106,0.24528301886792453
CO0390100,Grand Junction PD,159,303,296,200,39.0650041,-108.5622338,0.2578616352201258
OK07201,Broken Arrow PD,177,255,265,223,36.0244204,-95.7890832,0.2598870056497175
MT05601,Billings PD,634,817,1036,798,45.803752,-108.5372187,0.2586750788643533
,Layton PD,83,116,119,105,41.0662209,-111.9612297,0.26506024096385544
MI50806,Warren PD,359,421,431,457,42.5131736,-83.0242313,0.27298050139275765
MI25398,Flint PD,300,282,310,381,43.0108607,-83.6871918,0.27
MN0270300,Brooklyn Park PD,301,339,355,383,45.1098845,-93.3497282,0.2724252491694352
TX24305,Wichita Falls PD,232,278,395,297,33.9042054,-98.4969754,0.2801724137931034
,Pleasant Grove PD,25,26,49,32,40.3628376,-111.7393662,0.28
CO0070100,Boulder PD,262,388,418,338,40.0067893,-105.2610847,0.2900763358778626
PA0670400,Springettsbury Township PD,24,20,13,31,39.99193767,-76.66730001,0.2916666666666667
,South Jordan PD,82,121,125,106,40.5584896,-111.936598,0.2926829268292683
,Springfield Township PD,20,52,40,26,39.9869486,-83.8764965,0.3
RI0040800,Pawtucket PD,182,220,215,237,41.8788507,-71.3821744,0.3021978021978022
RI0041200,Woonsocket PD,94,101,92,122,42.0059881,-71.50986206,0.2978723404255319
OR0060600,North Bend PD,23,18,21,30,43.4075296,-124.2257484,0.30434782608695654
TXHPD00,Houston PD,13127,14781,15657,17175,29.72974523,-95.27259955,0.3083720575912242
TX01404,Killeen PD,318,436,398,418,31.0953918,-97.6992337,0.31446540880503143
NC07403,Greenville PD,94,95,71,124,35.6053346,-77.3681031,0.3191489361702128
TN07501,Murfreesboro PD,267,297,294,352,35.8361583,-86.4122081,0.31835205992509363
KY03402,Lexington PD,906,1037,999,1199,38.0455545,-84.4966215,0.32339955849889623
,Beavercreek PD,34,61,34,45,39.7309872,-84.0682306,0.3235294117647059
MN0020400,Columbia Heights PD,50,74,71,66,45.03969313,-93.25786516,0.32
NC01301,Concord PD,100,124,145,133,35.3691819,-80.722105,0.33
PAPSP9100,PA State Police - Washington Station,24,19,27,32,40.1680849,-80.2464984,0.3333333333333333
,West Jordan PD,200,317,275,267,40.60514269,-111.9393727,0.335
OH04807,Toledo PD,798,1008,1144,1066,41.72129052,-83.5263855,0.3358395989974937
TX05704,Carrollton PD,157,215,246,210,32.9765368,-96.8866819,0.3375796178343949
NC09201,Raleigh PD,894,1362,1076,1201,35.7784522,-78.62297769,0.3434004474272931
MN0620900,St Paul PD,2419,2818,2711,3247,44.95643028,-93.08511835,0.3422902025630426
OR0330100,The Dalles PD,53,49,79,71,45.6011816,-121.1841892,0.33962264150943394
PA0670900,West Manchester Township PD,20,15,16,27,39.8516118,-75.3593797,0.35
MN0620700,North St Paul PD,37,39,41,50,45.01418401,-92.99012441,0.35135135135135137
OR0300300,Pendleton PD,46,46,55,62,45.6736635,-118.8432148,0.34782608695652173
CO0010200,Brighton PD,199,285,248,270,39.9733051,-104.782374,0.35678391959798994
TX16501,Midland PD,211,466,257,287,31.9960562,-102.081186,0.36018957345971564
TX05715,Irving PD,711,969,951,968,32.8705014,-96.967816,0.36146272855133615
MN0550000,Olmsted County SO,22,23,29,30,43.99755932,-92.392502,0.36363636363636365
OR0090100,Bend PD MIP,111,168,149,151,44.0559832,-121.2846605,0.36036036036036034
AZ0071100,Gilbert PD,154,151,179,211,33.32940782,-111.7882038,0.37012987012987014
PA0462200,Pottstown Borough PD,41,48,92,56,40.2456961,-75.6522116,0.36585365853658536
OR0240200,Salem PD MIP,837,1131,1068,1144,44.9360439,-123.0416036,0.36678614097968937
OR0260000,Multnomah SO,286,306,388,391,45.51160088,-122.3250038,0.36713286713286714
VA12800,Virginia Beach PD,582,624,773,803,36.7536586,-76.0582765,0.3797250859106529
PA0090500,Falls Township PD,42,56,46,58,41.46282315,-75.84445851,0.38095238095238093
MN0500100,Austin PD,29,23,41,40,43.667795,-92.9739517,0.3793103448275862
MN0820800,Oakdale PD,66,68,88,91,44.9709664,-92.9653238,0.3787878787878788
WA03204,Spokane PD,1292,1103,1187,1788,47.66554755,-117.428914,0.38390092879256965
IA08202,Davenport PD,346,469,457,481,41.5238493,-90.5791999,0.3901734104046243
RI0040700,North Providence PD,44,41,76,61,41.84002609,-71.46640907,0.38636363636363635
PA0220800,Susquehanna Township PD,18,22,16,25,41.9604208,-75.5849947,0.3888888888888889
MN0340100,Willmar PD,31,43,52,43,45.1457957,-95.0142517,0.3870967741935484
IL05802,Decatur PD,173,196,242,242,39.8391409,-88.9533116,0.3988439306358382
TX05720,Richardson PD,245,303,257,342,32.99093227,-96.7468556,0.39591836734693875
,Draper PD,57,90,127,80,40.524737,-111.8628661,0.40350877192982454
,Mansfield PD,84,75,106,118,40.7591241,-82.5129428,0.40476190476190477
,Alliance PD,25,45,26,35,40.9212348,-81.0985826,0.4
OR0180100,Klamath Falls PD,82,101,176,115,42.2228156,-121.78213,0.4024390243902439
OR0270000,Polk SO,25,31,23,35,44.91785541,-123.3759691,0.4
CO0380100,Sterling PD,22,46,34,31,40.6220946,-103.1786796,0.4090909090909091
CA04300,Santa Clara PD,372,555,609,523,37.3537766,-121.938459,0.40591397849462363
CO0020100,Alamosa PD,27,45,33,38,37.469589,-105.86352,0.4074074074074074
WA01702,Bellevue PD,340,288,436,481,47.61446269,-122.1918352,0.4147058823529412
OR0100600,Sutherlin PD,19,28,19,27,43.39009344,-123.3121166,0.42105263157894735
OR0220300,Lebanon PD,26,22,41,37,44.545569,-122.910448,0.4230769230769231
MN0730400,St Cloud PD,175,238,237,249,45.56011465,-94.16580726,0.4228571428571429
OR0300200,Milton Freewater PD,24,24,13,34,45.9281105,-118.38572,0.4166666666666667
,Ashtabula County SO,46,60,30,66,41.8669431,-80.78011,0.43478260869565216
MI50849,Clinton Township PD,156,175,209,223,42.580716,-82.9047954,0.42948717948717946
OR0030400,Lake Oswego PD,47,51,67,67,45.41944,-122.6676751,0.425531914893617
OR0260200,Portland Police Bureau MIP,"6,403",6387,"8,998",9174,45.49869542,-122.688497,NaN
OHCIP00,Cincinnati PD,1352,1506,1475,1942,39.1868853,-84.4868368,0.4363905325443787
,Cleveland Heights PD,66,80,102,95,41.519429,-81.553915,0.4393939393939394
OR0360100,McMinnville PD,39,59,52,56,45.2119714,-123.1935439,0.4358974358974359
CA03706,Escondido PD,395,432,573,572,33.1177424,-117.0905017,0.4481012658227848
NV0020100,Las Vegas Metro PD,7311,7166,8880,10602,36.18257893,-115.1322616,0.45014361920393925
,Akron PD,741,1011,1179,1071,41.034345,-81.4403329,0.44534412955465585
,Niles PD,22,21,29,32,41.1787461,-80.7645696,0.45454545454545453
TX06106,Lewisville PD,243,246,312,355,33.04282783,-97.02236794,0.4609053497942387
CA03801,San Francisco PD,4449,6097,6077,6513,37.7259665,-122.4814548,0.46392447741065407
CO0510000,Pueblo County SO,160,156,210,234,38.2658726,-104.6093623,0.4625
PA0670200,York City PD,134,123,159,195,39.9910542,-76.6702415,0.4552238805970149
,Cleveland PD,3084,3288,3588,4514,41.5461791,-81.6148602,0.46368352788586253
MA00911,Cambridge PD,98,81,119,143,42.367225,-71.086275,0.45918367346938777
TX08408,League City PD,87,126,124,128,29.5023664,-95.0957039,0.47126436781609193
AZ0110100,Casa Grande PD,118,107,149,173,32.8785285,-111.7509009,0.4661016949152542
CA00100,Alameda PD,404,470,628,592,37.7670466,-122.2429695,0.46534653465346537
MN0190900,Inver Grove Heights PD,74,82,118,109,44.8308661,-93.061989,0.47297297297297297
OR0340300,Hillsboro PD MIP,214,248,265,314,45.5209425,-122.99344,0.4672897196261682
CO0300500,Wheat Ridge PD,187,377,449,276,39.7571935,-105.0805441,0.47593582887700536
LANPD00,New Orleans PD,2926,3467,3222,4338,29.9513572,-90.0761877,0.4825700615174299
,Cheviot PD,23,26,36,34,39.1570317,-84.6128391,0.4782608695652174
RI0040900,Providence PD,481,561,704,719,41.84002609,-71.46640907,0.49480249480249483
NH00634,Manchester PD,154,177,211,229,42.98968798,-71.46042812,0.487012987012987
CA01005,Fresno PD,2051,2650,3447,3084,36.77288148,-119.7217618,0.5036567528035105
PA0480400,Easton City PD,24,18,24,36,40.6880907,-75.21724841,0.5
RI00409,Providence PD,477,544,697,714,41.84002609,-71.46640907,0.4968553459119497
MN0271800,Richfield PD,88,134,131,132,44.8812357,-93.268481,0.5
CA00109,Oakland PD,6477,8737,9349,9859,37.7976378,-122.2660669,0.5221553188204415
MO0240700,North Kansas City PD,82,118,138,125,39.14350361,-94.57348598,0.524390243902439
PA0090100,Bensalem Township PD,83,134,113,126,40.1087091,-74.9436865,0.5180722891566265
MN0190700,West St Paul PD,88,111,107,134,44.89806966,-93.08243632,0.5227272727272727
PA0220200,Harrisburg City PD,112,112,118,171,40.2648773,-76.8839839,0.5267857142857143
SD04902,Sioux Falls PD,658,924,936,1006,43.5545239,-96.7302685,0.5288753799392097
OH07701,Akron PD,583,828,1016,900,41.034345,-81.4403329,0.5437392795883362
,Cincinnati PD,1385,1632,1611,2133,39.1868853,-84.4868368,0.540072202166065
OR00901,Bend PD,106,165,145,163,44.0559832,-121.2846605,0.5377358490566038
IL05701,Bloomington PD,74,70,77,115,40.47670903,-88.99237843,0.5540540540540541
,Perry Township PD,29,54,42,45,41.7692347,-81.1473416,0.5517241379310345
MN0270600,Edina PD,49,53,82,76,44.9112534,-93.3482568,0.5510204081632653
OR0030700,Oregon City PD,75,59,101,116,45.3299573,-122.6003047,0.5466666666666666
MOKPD0000,Kansas City PD,3902,4597,"4,675",6093,39.1006143,-94.5768305,0.561506919528447
MN0191000,Apple Valley PD,41,46,56,64,44.7346551,-93.2090356,0.5609756097560976
TXSPD00,San Antonio PD,7781,6980,8911,12193,29.349622,-98.2939291,0.567022233646061
NV0020300,Henderson PD,554,544,785,871,36.03055335,-114.9798275,0.572202166064982
MN0271900,Robbinsdale PD,42,31,60,66,45.0291507,-93.3387365,0.5714285714285714
TX02010,Pearland PD,105,121,144,166,29.5580263,-95.2890371,0.580952380952381
CA01941,Long Beach PD,2255,2738,3382,3564,33.768995,-118.1971895,0.5804878048780487
CO0450100,La Junta PD,24,18,35,38,37.986649,-103.5395996,0.5833333333333334
MO0920500,Wentzville PD,31,48,40,49,38.8228574,-90.8682814,0.5806451612903226
MN0270400,Crystal PD,45,65,76,71,45.0320145,-93.360494,0.5777777777777777
CO0010800,Northglenn PD,265,326,462,422,39.9095859,-104.9882738,0.5924528301886792
OR0030100,Canby PD,17,17,19,27,45.258719,-122.708058,0.5882352941176471
CO0230300,Rifle PD,20,34,39,32,39.53093953,-107.7828813,0.6
FL02902,Tampa PD,523,643,740,838,28.0754033,-82.4371234,0.6022944550669216
CO0300000,Jefferson County SO,375,452,590,605,40.69781307,-104.8876423,0.6133333333333333
PA0390800,Whitehall Township PD,18,23,21,29,40.6550951,-75.4985997,0.6111111111111112
CO0030200,Littleton PD,199,257,368,323,39.5634232,-105.0354762,0.6231155778894473
VA11100,Hampton PD,230,272,348,373,37.028386,-76.344264,0.6217391304347826
PA0091000,Morrisville Borough PD,21,20,21,34,40.210125,-74.7752528,0.6190476190476191
OR0310100,La Grande PD,21,29,27,34,45.32186944,-118.0947696,0.6190476190476191
OR0020100,Corvallis PD,71,109,120,116,44.56574,-123.2631155,0.6338028169014085
NV0020200,North Las Vegas PD,1113,1121,1314,1828,36.19529718,-115.1244534,0.6424079065588499
CA01942,Los Angeles PD,15642,21462,24552,25784,34.0673977,-118.4454579,0.6483825597749648
,Grove City PD,49,78,77,81,39.8818688,-83.0922878,0.6530612244897959
,Summit County SO,68,105,109,112,41.13573775,-81.54827901,0.6470588235294118
,Willoughby PD,17,34,-,28,41.6275256,-81.4245298,0.6470588235294118
OR0220100,Albany PD,98,127,130,162,44.63029393,-123.0973249,0.6530612244897959
MN0710200,Elk River PD,17,30,16,28,45.3039249,-93.6011474,0.6470588235294118
CO0350400,Loveland PD,141,135,193,234,40.4009446,-105.0664304,0.6595744680851063
PA0233700,Upper Darby Township PD,146,142,182,243,39.9136048,-75.25265017,0.6643835616438356
TX04601,New Braunfels PD,106,158,160,177,29.6878793,-98.1092907,0.6698113207547169
MO1040000,Stoddard County SO,18,24,21,30,36.85299439,-89.90958397,0.6666666666666666
,Fairfield County SO,57,67,80,95,39.3364961,-84.5582757,0.6666666666666666
MN0271400,New Hope PD,49,79,86,82,45.0356819,-93.3857043,0.673469387755102
MN0272700,Maple Grove PD,39,42,53,65,45.09969629,-93.44265347,0.6666666666666666
OR0340000,Washington SO,282,403,431,472,45.58002587,-123.0957456,0.6737588652482269
MD01721,Prince George's County PD,2069,2405,2829,3479,38.93610751,-76.80470228,0.681488641855969
,Oregon PD,22,32,29,37,41.6515047,-83.4203106,0.6818181818181818
PAPSP2500,PA State Police - Erie Station,19,27,15,32,42.129027,-80.087938,0.6842105263157895
MN0190100,Burnsville PD,112,146,140,188,44.7671631,-93.2749477,0.6785714285714286
DCMPD00,Washington PD,2228,3262,3493,3761,38.88009352,-76.99862893,0.6880610412926391
TX07102,El Paso PD,869,860,1023,1473,31.7804862,-106.5073782,0.6950517836593786
,Trotwood PD,105,90,115,178,39.7983226,-84.2932497,0.6952380952380952
,Richland County SO,30,30,27,51,40.80361422,-82.5389239,0.7
MN0700400,Shakopee PD,43,56,62,73,44.7956512,-93.5102741,0.6976744186046512
MO0730300,Neosho PD,21,29,18,36,36.87323812,-94.36894779,0.7142857142857143
MN0020600,Fridley PD,79,134,131,135,45.0849248,-93.2628207,0.7088607594936709
TX06102,Denton PD,254,368,355,438,33.2060648,-97.151474,0.7244094488188977
OR0270100,Dallas PD,18,26,22,31,44.9210619,-123.3157243,0.7222222222222222
ND00902,Fargo PD,396,465,593,680,46.87227592,-96.7938236,0.7171717171717171
CO0180000,Douglas County SO,186,351,444,321,39.40289749,-104.8619877,0.7258064516129032
AL00100,Jefferson County SO,220,237,344,380,33.52332616,-86.80708654,0.7272727272727273
,Bluffdale PD,15,21,22,26,40.48885936,-111.9340718,0.7333333333333333
MN0100000,Carver County SO,15,28,37,26,44.82212682,-93.79078677,0.7333333333333333
,North Salt Lake PD,34,58,63,59,40.84094638,-111.9112426,0.7352941176470589
OR0340100,Beaverton PD MIP,200,249,332,347,45.4855042,-122.7973737,0.735
TX07905,Sugar Land PD,65,89,89,114,29.6336142,-95.60059493,0.7538461538461538
TX22701,Austin PD,3035,4067,4585,5302,30.3266214,-97.7244506,0.7469522240527183
PAPSP3500,PA State Police - Hamburg Station,16,13,15,28,40.5394941,-76.0170163,0.75
MN0270100,Bloomington PD,165,240,316,288,44.8247924,-93.3020731,0.7454545454545455
CO0070000,Boulder County SO,46,77,110,81,40.0067893,-105.2610847,0.7608695652173914
OR0030000,Clackamas SO,601,627,973,1068,45.4308595,-122.5768926,0.7770382695507487
KS04606,Overland Park PD,320,545,563,574,38.92536038,-94.7280108,0.79375
PA0021600,Monroeville Borough PD,39,42,32,70,40.4359085,-79.7796065,0.7948717948717948
PAPSP8300,PA State Police - Stroudsburg Station PD,14,9,28,25,40.9870199,-75.1944535,0.7857142857142857
RI0020400,West Warwick PD,19,29,24,34,41.7261406,-71.4354925,0.7894736842105263
MN0271200,Minnetonka PD,42,45,81,75,44.9400028,-93.4659879,0.7857142857142857
CO0010800,Federal Heights PD,89,112,152,160,39.8591408,-105.0156312,0.797752808988764
,Elyria PD,49,64,70,88,41.3694347,-82.1098468,0.7959183673469388
,Fayette County SO,15,28,23,27,41.6732634,-84.3283372,0.8
OR0220000,Linn SO,86,108,121,155,44.51914868,-122.5552236,0.8023255813953488
OR0360200,Newberg-Dundee PD,20,34,27,36,45.2988821,-122.97566,0.8
OR0300000,Umatilla SO,55,64,64,99,45.91632134,-119.3482253,0.8
MO0260100,Jefferson City PD,67,94,83,122,38.573528,-92.170943,0.8208955223880597
OR0140200,Hood River PD,17,17,51,31,45.7077613,-121.5136903,0.8235294117647058
CO0150100,Delta PD,24,36,41,44,38.7405777,-108.0730953,0.8333333333333334
WASPD00,Seattle PD,3755,4753,5303,6864,47.6022312,-122.3303638,0.8279627163781624
CO0350000,Larimer County SO,107,136,177,197,40.56512098,-105.0295384,0.8411214953271028
CO0180700,Lone Tree PD,37,57,111,68,39.5520818,-104.8810313,0.8378378378378378
MN0190600,South St Paul PD,55,85,102,102,44.8918829,-93.03502652,0.8545454545454545
PA0220900,Swatara Township PD,21,32,22,39,40.2464457,-76.80975241,0.8571428571428571
NB05501,Lincoln PD,454,451,623,843,40.7714533,-96.69886002,0.8568281938325991
MN0190800,Eagan PD,73,115,120,136,44.8182555,-93.1659861,0.863013698630137
CO0010400,Thornton PD,642,960,1187,1202,39.8695455,-104.9861666,0.8722741433021807
MN0240100,Albert Lea PD,23,28,36,43,43.64611723,-93.36771807,0.8695652173913043
MO0720000,New Madrid County SO,16,15,36,30,36.58729918,-89.52817979,0.875
NV0040000,Elko County SO,25,31,41,47,40.8246854,-115.7723704,0.88
MN0620600,New Brighton Dept of Public Safety,34,52,55,64,45.0622589,-93.1927311,0.8823529411764706
,Canton PD,347,398,472,657,40.7976347,-81.3764794,0.8933717579250721
OR0340600,Sherwood PD,18,26,16,34,45.3682835,-122.8499168,0.8888888888888888
,Dayton PD,781,835,816,1483,39.7228583,-84.174237,0.8988476312419974
MN0271700,Plymouth PD,44,82,93,84,45.01945956,-93.47485824,0.9090909090909091
,Colerain Township PD,49,79,115,94,39.24587597,-84.60845086,0.9183673469387755
PAPSP0600,PA State Police - Bethlehem Station PD,15,14,18,29,40.58631594,-75.38905159,0.9333333333333333
MN0700600,Savage PD,14,24,44,27,44.7652224,-93.3546861,0.9285714285714286
OH05702,Dayton PD,806,882,856,1566,39.7228583,-84.174237,0.9429280397022333
,Miami County SO,18,18,32,35,40.05954487,-84.2282805,0.9444444444444444
OR0060200,Coos Bay PD,35,51,60,68,43.35946931,-124.2980299,0.9428571428571428
MO0920300,St Charles PD,88,226,198,172,38.79352432,-90.4340394,0.9545454545454546
PA0462100,Plymouth Township PD,22,20,37,43,41.2423996,-75.9511891,0.9545454545454546
,Wood County SO,21,14,17,41,41.35810089,-83.6492367,0.9523809523809523
IL10104,Rockford PD,394,394,449,768,42.2725417,-89.1000575,0.949238578680203
NY02701,Rochester PD,579,823,981,1135,43.1490328,-77.6944235,0.9602763385146805
MN0620400,Maplewood PD,162,208,246,317,45.00359055,-93.02125184,0.9567901234567902
MN0620800,Roseville PD,117,164,169,229,45.0210009,-93.1482652,0.9572649572649573
PA0461400,Lower Merion Township PD,34,51,50,67,40.01271321,-75.3249305,0.9705882352941176
OR0030500,Milwaukie PD,36,67,79,71,45.4461333,-122.6288741,0.9722222222222222
OHCOP00,Columbus PD,3577,3105,4384,7102,39.9639855,-83.0701772,0.9854626782219738
PA0233600,Upper Chichester Township PD,16,22,15,32,39.8571969,-75.4588347,1
PAPSP4300,PA State Police - Jonestown Station,13,13,19,26,40.4249959,-76.4998365,1
MI33519,Lansing PD,369,570,501,743,42.7323296,-84.553552,1.013550135501355
MN0272100,St Louis Park PD,87,108,145,175,44.94817349,-93.34008791,1.0114942528735633
CO0350300,Fort Collins PD,239,310,368,486,40.5771286,-105.0870949,1.0334728033472804
MN0270900,Hopkins PD,27,48,58,55,44.9221299,-93.4134515,1.037037037037037
IL08402,Springfield PD,265,254,354,541,39.75287405,-89.64936794,1.0415094339622641
,Columbus PD,3715,3471,4772,7644,39.9639855,-83.0701772,1.0576043068640646
OR0240400,Stayton PD,17,25,30,35,44.7976972,-122.7919351,1.0588235294117647
MN0271100,Minneapolis PD,3013,3923,4323,6207,44.9773167,-93.26588838,1.0600730169266512
CO0030100,Englewood PD,308,419,605,638,39.6512629,-104.9941159,1.0714285714285714
TNMPD00,Memphis PD,4052,4442,4979,8399,35.1484406,-90.0466752,1.0728035538005922
,Montgomery County SO,157,189,258,326,39.2427983,-84.3468022,1.0764331210191083
,Lakewood PD,52,92,58,108,41.4849346,-81.7774333,1.0769230769230769
PAPSP0900,PA State Police - Butler Station,13,13,17,27,40.7813767,-79.9224806,1.0769230769230769
MN0820000,Washington County SO,35,65,84,73,45.0380066,-92.7996001,1.0857142857142856
,Hurricane PD,20,19,20,42,37.1773116,-113.2839542,1.1
,Riverton PD,18,57,54,38,40.518362,-111.9394512,1.1111111111111112
CO0420000,Montezuma County SO,15,22,33,32,37.31362959,-108.6582465,1.1333333333333333
CO0300100,Arvada PD,385,568,871,820,39.80338856,-105.0878116,1.12987012987013
,Spanish Fork PD,15,18,39,32,40.10858099,-111.668091,1.1333333333333333
OR0241700,Keizer PD,56,127,85,119,44.99584217,-123.0206961,1.125
,Delaware County SO,39,57,58,83,40.3035445,-83.0678388,1.1282051282051282
,Herriman PD,24,58,61,51,40.51650113,-112.0167872,1.125
OR0340400,Tigard PD,118,143,158,253,45.4252104,-122.7673813,1.1440677966101696
,Hilliard PD,22,24,34,47,40.0369871,-83.1547915,1.1363636363636365
PAPSP4100,PA State Police - Huntingdon Station,14,11,25,30,40.4858058,-78.0130808,1.1428571428571428
,Jackson Township PD,25,36,51,54,39.0532059,-82.6370762,1.16
PA0410500,Williamsport City PD,23,20,40,50,41.240838,-77.0023715,1.173913043478261
,Duchesne County SO,12,31,29,26,40.18009722,-110.3878441,1.1666666666666667
CO0621800,Firestone PD,17,51,54,37,40.11769436,-104.9386467,1.1764705882352942
OR0341200,Tualatin PD,63,76,122,138,45.3862124,-122.7658822,1.1904761904761905
PAPSP9200,PA State Police - Waynesburg Station PD,15,18,32,33,40.0363468,-75.373021,1.2
,American Fork/Cedar Hills PD,24,21,47,53,40.3786031,-111.7969003,1.2083333333333333
OR0150100,Ashland PD,23,38,33,51,42.1943736,-122.69824,1.2173913043478262
CA01965,Santa Monica PD,244,391,420,541,34.0122584,-118.490803,1.2172131147540983
,Huber Heights PD,54,82,93,120,39.8639099,-84.1302641,1.2222222222222223
CO0510100,Pueblo PD,789,971,1434,1756,38.2658726,-104.6093623,1.2256020278833968
NY01401,Buffalo PD,679,1190,1530,1511,42.8841871,-78.8794237,1.2253313696612667
CO0180500,Parker PD,72,123,151,162,39.532693,-104.772093,1.25
TX10808,McAllen PD,28,49,40,63,33.0547359,-96.6216095,1.25
PA0462900,Upper Merion Township PD,23,23,32,52,40.10260696,-75.36764188,1.2608695652173914
MN0140400,Moorhead PD,76,130,158,172,46.8842155,-96.7652554,1.263157894736842
VA11700,Norfolk PD,802,790,1098,1831,36.88530797,-76.30008791,1.2830423940149627
CO0030000,Arapahoe County SO,330,612,793,757,39.68864095,-104.8950755,1.293939393939394
CO0010500,Westminster PD,647,966,1533,1481,39.86152034,-105.0486239,1.2890262751159196
OR0040100,Astoria PD,14,30,20,32,46.15881376,-123.6597951,1.2857142857142858
,Bountiful PD,20,29,36,46,40.88016717,-111.8797112,1.3
CO0010300,Commerce City PD,380,606,771,879,39.8060857,-104.8966105,1.313157894736842
MI50765,Sterling Heights PD,99,154,187,229,42.59101309,-83.01246416,1.3131313131313131
WIMPD00,Milwaukee PD,3488,4544,10478,8056,43.0424908,-87.9223178,1.3096330275229358
,Washington City PD,19,30,28,44,37.1313021,-113.5102375,1.3157894736842106
WA01707,Kent PD,850,961,1505,1981,47.3804542,-122.2369908,1.3305882352941176
CO0300200,Golden PD,47,89,126,110,39.7303381,-105.2019249,1.3404255319148937
ILCPD00,Chicago PD,8140,9272,10225,19064,41.8303418,-87.6238183,1.342014742014742
CO0070300,Lafayette PD,51,61,117,120,40.00254222,-105.0946012,1.3529411764705883
,Moraine PD,20,33,34,47,39.6875341,-84.2249462,1.35
,Upper Arlington PD,16,11,27,38,40.0312044,-83.0509795,1.375
CO0300400,Lakewood PD,881,"1,415","1,963","2,136",39.7188023,-105.1515297,NaN
OR0030300,Gladstone PD,31,37,67,75,45.3806907,-122.5943906,1.4193548387096775
OR0050300,St. Helens PD,14,29,37,34,45.86058734,-122.8085123,1.4285714285714286
,Westerville PD,27,35,32,66,40.0982878,-82.9049129,1.4444444444444444
PA0040100,Aliquippa City PD,13,14,13,32,40.6179532,-80.2462473,1.4615384615384615
PAPSP5600,PA State Police - Media Station,21,24,35,53,39.9303781,-75.387119,1.5238095238095237
NY03030,New York PD,5430,9037,10415,13749,40.70825034,-74.01051914,1.5320441988950275
OR0160000,Jefferson SO,11,20,27,28,44.81470809,-121.1782887,1.5454545454545454
MN0272600,Eden Prairie PD,22,54,68,57,44.8563252,-93.4619008,1.5909090909090908
CO0031100,Centennial PD,189,348,495,502,39.579896,-104.8377581,1.656084656084656
CO0300300,Edgewater PD,30,57,77,80,39.7531404,-105.0616393,1.6666666666666667
,Dublin PD,28,38,37,75,40.1121409,-83.0923317,1.6785714285714286
MN0821100,Woodbury Public Safety,38,62,99,103,44.9181561,-92.9347546,1.7105263157894737
,Sylvania Township PD,24,38,39,65,41.6946289,-83.7223008,1.7083333333333333
CO0620400,Evans PD,61,100,122,168,40.3768864,-104.6976337,1.7540983606557377
PA0480300,Bethlehem City PD,38,35,57,108,40.58631594,-75.38905159,1.8421052631578947
MI41141,Kent County SO,111,250,260,315,43.00623035,-85.41564634,1.837837837837838
CO0011100,Denver PD,5347,8468,12792,15256,39.7417702,-105.0092523,1.853188703946138
CO0010100,Aurora PD,2380,4041,5648,6879,39.7461551,-104.8425436,1.8903361344537815
CO0640100,Broomfield PD,139,283,380,402,39.9206944,-105.0683333,1.8920863309352518
PA0461900,Norristown Borough PD,62,83,115,179,40.1154711,-75.3434018,1.8870967741935485
CO0030400,Glendale PD,84,156,262,244,39.6991427,-104.9360247,1.9047619047619047
MI41436,Grand Rapids PD,501,581,937,1464,42.9635764,-85.6685339,1.9221556886227544
CO0620700,Erie PD,15,31,51,44,40.05076874,-105.0499383,1.9333333333333333
OR0030900,West Linn PD,14,21,35,41,45.3600615,-122.6109414,1.9285714285714286
,Lucas County SO,55,75,116,165,41.62276612,-83.7401725,2
,Forest Park PD,26,29,46,81,40.8014951,-83.5143463,2.1153846153846154
PA0460500,Cheltenham Township PD,49,61,47,153,40.08284735,-75.12557795,2.122448979591837
PA0233000,Sharon Hill Borough PD,8,11,12,25,39.9063398,-75.2721835,2.125
PA0460100,Abington Township PD,19,19,24,60,40.1171761,-75.1208464,2.1578947368421053
CO0621000,Johnstown PD,24,43,56,77,40.3298543,-104.9069317,2.2083333333333335
TX24605,Round Rock PD,53,93,147,170,30.5404837,-97.6871334,2.207547169811321
NV0070100,Winnemucca PD,12,24,28,39,40.97204736,-117.7334873,2.25
CO0620200,Greeley PD,308,392,569,1013,40.42371865,-104.7275098,2.288961038961039
,Gahanna PD,32,55,45,106,40.0137492,-82.8654989,2.3125
MN0191100,Lakeville PD,16,16,53,54,44.6572022,-93.2416518,2.375
PA0220400,Lower Paxton Township PD,15,27,25,51,40.29866047,-76.80356335,2.4
WA02703,Tacoma PD,1699,2169,3782,5814,47.2251036,-122.4726379,2.422012948793408
PAPSP8000,PA State Police -  Somerset Station,9,25,20,31,40.0097097,-79.084238,2.4444444444444446
CO0070600,Louisville PD,19,43,80,68,39.97262224,-105.1634969,2.5789473684210527
CO0030300,Sheridan PD,45,130,161,165,39.64195689,-105.0269227,2.6666666666666665
CO0240200,Black Hawk PD,8,11,24,30,39.801871,-105.4953632,2.75
PA0231000,East Lansdowne Borough PD,7,6,5,27,39.9382035,-75.2717272,2.857142857142857
CO0620600,Windsor PD,10,8,12,41,40.47803526,-104.901141,3.1
,Green Township PD,17,46,64,73,39.18684671,-84.65144244,3.2941176470588234
CO0030700,Greenwood Village PD,53,100,17,248,39.6064565,-104.9031846,3.6792452830188678
MN0272000,St Anthony PD,10,19,39,59,45.03806401,-93.21353751,4.9
VT00401,Burlington PD,55,62,137,362,44.4823272,-73.2211021,5.581818181818182
PA0063500,Central Berks Regional PD,5,6,9,25,40.32808551,-75.89353075,4
PAPSP1100,PA State Police - Pittsburgh Station,7,12,42,37,40.48011375,-80.19365216,4.285714285714286
PAPEP0000,Philadelphia City PD,5570,6977,8882,12646,39.94821863,-75.20416489,1.2703770197486535